Obs#,Time,Date,configName,configAuthor,remark,Column,Row,Treatment,gsw,gbw,gtw,E_apparent,VPcham,VPref,VPleaf,VPDleaf,H2O_r,H2O_s,H2O_leaf,leaf_area,flashID,Fo,Fm,Fv/Fm,Fs,Fm',PhiPS2,PS2/1,abs,ETR,rh_s,rh_r,Tref,Tleaf,P_atm,flow,flow_s,leak_pct,Qamb,batt,pitch,roll,heading,angle_inc_leaf,direct_pct,slope_leaf,az_leaf,dec_solar,az_solar,zenith_solar,gps_time,gps_date,latitude,longitude,altitude,gps_sats,gps_HDOP,match_time,match_date,rh_adj,gsw1sec,gsw2sec,gsw4sec,flr1sec,flr2sec,flr4sec,auto,flow_set,gsw_limit,gsw_period,dark,flash_type,flash_intensity,modrate,flr_limit,flr_period,P1_dur,P2_dur,P3_dur,P1_Fmax,P2_ramp,P2_slp,P3_Fmax,P3_Pred,P3_DeltaF,v_humA,v_humB,v_flowIn,v_flowOut,v_temp,v_irt,v_pres,v_par,v_F,i_LED,b_rhr,m_rhr,span_rhr,b_rhs,m_rhs,span_rhs,z_flowIn,z_flowOut,z_quantum,z_flr,flashId,lciSerNum,lcpSerNum,lcfSerNum,lcrhSerNum,version,configUpdatedAt
1,14:03:22,4/29/2024,TIM2024,Zach Peagler,,1,1,Control,0.595623,2.921246,0.494747,7.261475,1.671506,1.473633,3.079273,1.407767,14.992557,17.005686,31.328123,0.441786,PSF-01133_20240429140322,0,0,0,209.751251,358.609192,0.415098,0.5,0.8,122.124695,72.93,64.3,19.62,24.46,98.29,156.6,156.6,0,736,3.786,-5,-2,290,,,,,,,,0:00:00,0000-00-00,nan,nan,nan,0,nan,14:03:11,4/29/2024,-1.57,-0.913,-0.196,0.382,197.696,99.078,48.822,0,150,-9999,-9999,0,rectangular,7000,500,-9999,-9999,55537,55537,55537,0,-9999,0,0,0,0,2.513251,2.440784,1.689095,0.954337,0.338333,0.057023,0.183591,0.761128,209.751251,0.000347,2.408414,0.000005,1,2.331839,0,1,0.600047,0.602054,0.107606,0,PSF-01133_20240429140322,PFA-00959,PSA-00959,PSF-01133,RHS-01583,2.0.0,2024-04-29T17:45:45.604Z
2,14:03:34,4/29/2024,TIM2024,Zach Peagler,,1,2,Liquid,0.374849,2.921695,0.332225,4.358376,1.692759,1.57405,2.951881,1.259123,16.012516,17.220114,30.028933,0.441786,PSF-01133_20240429140334,0,0,0,227.994919,358.367096,0.363795,0.5,0.8,91.773048,73.24,68.1,19.75,23.76,98.3,156.7,156,0.4,631,3.786,-1,2,287,,,,,,,,0:00:00,0000-00-00,nan,nan,nan,0,nan,14:03:11,4/29/2024,-1.57,-0.012,-0.04,-9999,2.543,5.899,-9999,0,150,-9999,-9999,0,rectangular,7000,500,-9999,-9999,55537,55537,55537,0,-9999,0,0,0,0,2.518502,2.441145,1.689578,0.952898,0.336487,0.047293,0.185832,0.667964,227.994919,0.000348,2.408414,0.000005,1,2.331839,0,1,0.600047,0.602054,0.107606,0,PSF-01133_20240429140334,PFA-00959,PSA-00959,PSF-01133,RHS-01583,2.0.0,2024-04-29T17:45:45.604Z
3,14:03:45,4/29/2024,TIM2024,Zach Peagler,,1,3,CBG,0.881065,2.922321,0.676964,8.897132,1.862679,1.620919,3.121743,1.259064,16.490898,18.950514,31.759974,0.441786,PSF-01133_20240429140345,0,0,0,207.346207,362.200134,0.427537,0.5,0.8,123.87709,80,69.62,19.87,24.69,98.29,156.8,156.6,0.1,724,3.784,0,-3,280,,,,,,,,0:00:00,0000-00-00,nan,nan,nan,0,nan,14:03:11,4/29/2024,-1.57,-0.497,0.032,0.611,-87.722,68.137,34.065,0,150,-9999,-9999,0,rectangular,7000,500,-9999,-9999,55537,55537,55537,0,-9999,0,0,0,0,2.520573,2.449624,1.690252,0.954298,0.334886,0.056828,0.18774,0.751219,202.224976,0.000351,2.408414,0.000005,1,2.331839,0,1,0.600047,0.602054,0.107606,0,PSF-01133_20240429140345,PFA-00959,PSA-00959,PSF-01133,RHS-01583,2.0.0,2024-04-29T17:45:45.604Z
4,14:04:20,4/29/2024,TIM2024,Zach Peagler,,1,4,CG,1.315816,2.922286,0.907291,8.588412,1.972577,1.739417,2.880227,0.907651,17.692867,20.064507,29.296877,0.441786,PSF-01133_20240429140420,0,0,0,141.509415,391.050354,0.63813,0.5,0.8,47.45171,82.81,73.02,20.24,23.35,98.31,156.8,156.4,0.3,186,3.784,-1,0,349,,,,,,,,0:00:00,0000-00-00,nan,nan,nan,0,nan,14:03:11,4/29/2024,-1.57,0.777,1.227,1.238,0.379,0.253,-1.835,0,150,-9999,-9999,0,rectangular,7000,500,-9999,-9999,55537,55537,55537,0,-9999,0,0,0,0,2.525204,2.453092,1.690215,0.953758,0.329965,0.037103,0.193536,0.272783,141.509415,0.000344,2.408414,0.000005,1,2.331839,0,1,0.600047,0.602054,0.107606,0,PSF-01133_20240429140420,PFA-00959,PSA-00959,PSF-01133,RHS-01583,2.0.0,2024-04-29T17:45:45.604Z
5,14:04:27,4/29/2024,TIM2024,Zach Peagler,,1,5,Control,0.660549,2.922138,0.538762,6.389199,1.932998,1.759446,3.069255,1.136257,17.896051,19.661322,31.218666,0.441786,PSF-01133_20240429140427,0,0,0,144.180176,358.832001,0.598196,0.5,0.8,43.615314,80.76,73.51,20.32,24.41,98.31,156.8,155.8,0.6,182,3.755,-5,5,346,,,,,,,,0:00:00,0000-00-00,nan,nan,nan,0,nan,14:03:11,4/29/2024,-1.57,-0.004,0.741,-9999,124.068,61.433,-9999,0,150,-9999,-9999,0,rectangular,7000,500,-9999,-9999,55537,55537,55537,0,-9999,0,0,0,0,2.525865,2.45051,1.690056,0.952312,0.328944,0.048476,0.194553,0.269564,144.180176,0.000346,2.408414,0.000005,1,2.331839,0,1,0.600047,0.602054,0.107606,0,PSF-01133_20240429140427,PFA-00959,PSA-00959,PSF-01133,RHS-01583,2.0.0,2024-04-29T17:45:45.604Z
6,14:04:35,4/29/2024,TIM2024,Zach Peagler,,1,6,Liquid,1.367391,2.921583,0.931445,9.035867,2.022931,1.77763,2.95245,0.92952,18.082718,20.578001,30.033421,0.441786,PSF-01133_20240429140435,0,0,0,143.609406,375.158417,0.617203,0.5,0.8,37.299446,84.09,73.9,20.4,23.76,98.31,156.7,156.5,0.1,151,3.755,-4,1,307,,,,,,,,0:00:00,0000-00-00,nan,nan,nan,0,nan,14:03:11,4/29/2024,-1.57,0.133,0.575,0.699,-0.26,0.362,-0.731,0,150,-9999,-9999,0,rectangular,7000,500,-9999,-9999,55537,55537,55537,0,-9999,0,0,0,0,2.52638,2.45468,1.689457,0.954068,0.327864,0.040049,0.195612,0.241846,142.820114,0.000356,2.408414,0.000005,1,2.331839,0,1,0.600047,0.602054,0.107606,0,PSF-01133_20240429140435,PFA-00959,PSA-00959,PSF-01133,RHS-01583,2.0.0,2024-04-29T17:45:45.604Z
7,14:04:43,4/29/2024,TIM2024,Zach Peagler,,1,7,CBG,1.162405,2.921922,0.831583,7.447761,1.991288,1.789088,2.850047,0.858759,18.199221,20.256067,28.991659,0.441786,PSF-01133_20240429140443,0,0,0,135.247345,385.390869,0.649064,0.5,0.8,36.833458,82.36,73.99,20.48,23.18,98.31,156.7,156,0.5,142,3.781,-5,0,293,,,,,,,,0:00:00,0000-00-00,nan,nan,nan,0,nan,14:03:11,4/29/2024,-1.57,0.309,1.225,1.107,0.021,0.071,-1.285,0,150,-9999,-9999,0,rectangular,7000,500,-9999,-9999,55537,55537,55537,0,-9999,0,0,0,0,2.526494,2.452484,1.689822,0.952699,0.32677,0.032372,0.196707,0.233662,135.247345,0.000349,2.408414,0.000005,1,2.331839,0,1,0.600047,0.602054,0.107606,0,PSF-01133_20240429140443,PFA-00959,PSA-00959,PSF-01133,RHS-01583,2.0.0,2024-04-29T17:45:45.604Z
8,14:04:48,4/29/2024,TIM2024,Zach Peagler,,1,8,CG,0.254478,2.921671,0.234089,9.344372,2.057523,1.803974,5.824115,3.766592,18.351906,20.931273,59.248974,0.441786,PSF-01133_20240429140448,0,0,0,2.579927,2.593517,0.00524,0.5,0.8,0.320595,84.82,74.37,20.54,35.55,98.3,156.7,-21.8,113.9,153,3.781,-15,15,240,,,,,,,,0:00:00,0000-00-00,nan,nan,nan,0,nan,14:03:11,4/29/2024,-1.57,0.021,-9999,-9999,-0.024,-9999,-9999,0,150,-9999,-9999,0,rectangular,7000,500,-9999,-9999,55537,55537,55537,0,-9999,0,0,0,0,2.527008,2.455578,1.689552,0.562034,0.326095,0.186639,0.197286,0.243512,2.579927,0.000343,2.408414,0.000005,1,2.331839,0,1,0.600047,0.602054,0.107606,0,PSF-01133_20240429140448,PFA-00959,PSA-00959,PSF-01133,RHS-01583,2.0.0,2024-04-29T17:45:45.604Z
9,14:04:55,4/29/2024,TIM2024,Zach Peagler,,1,9,Control,1.787092,2.922382,1.108949,9.417633,2.05267,1.797255,2.866606,0.813936,18.282904,20.881163,29.161072,0.441786,PSF-01133_20240429140455,0,0,0,130.272385,403.062714,0.676794,0.5,0.8,37.299004,84.29,73.8,20.6,23.27,98.3,156.8,155.9,0.6,138,3.781,-2,-1,235,,,,,,,,0:00:00,0000-00-00,nan,nan,nan,0,nan,14:03:11,4/29/2024,-1.57,1.032,1.352,-9999,0.124,-1.244,-9999,0,150,-9999,-9999,0,rectangular,7000,500,-9999,-9999,55537,55537,55537,0,-9999,0,0,0,0,2.5262,2.454893,1.690318,0.952415,0.325245,0.03216,0.198134,0.230025,131.607407,0.000354,2.408414,0.000005,1,2.331839,0,1,0.600047,0.602054,0.107606,0,PSF-01133_20240429140455,PFA-00959,PSA-00959,PSF-01133,RHS-01583,2.0.0,2024-04-29T17:45:45.604Z
10,14:05:03,4/29/2024,TIM2024,Zach Peagler,,1,10,Liquid,0.965141,2.922173,0.725516,6.753074,1.960026,1.776677,2.852589,0.892563,18.074253,19.93948,29.019585,0.441786,PSF-01133_20240429140503,0,0,0,134.763474,406.40329,0.6684,0.5,0.8,35.15184,80.08,72.59,20.68,23.19,98.3,156.8,156.2,0.4,131,3.78,1,4,239,,,,,,,,0:00:00,0000-00-00,nan,nan,nan,0,nan,14:03:11,4/29/2024,-1.57,0.2,0.52,-9999,2.425,1.333,-9999,0,150,-9999,-9999,0,rectangular,7000,500,-9999,-9999,55537,55537,55537,0,-9999,0,0,0,0,2.524503,2.44959,1.690092,0.953225,0.324179,0.030308,0.199177,0.224427,134.763474,0.000341,2.408414,0.000005,1,2.331839,0,1,0.600047,0.602054,0.107606,0,PSF-01133_20240429140503,PFA-00959,PSA-00959,PSF-01133,RHS-01583,2.0.0,2024-04-29T17:45:45.604Z
11,14:05:10,4/29/2024,TIM2024,Zach Peagler,,1,11,CBG,1.003421,2.923612,0.74703,7.044013,1.955886,1.764859,2.86002,0.904134,17.955088,19.898533,29.096888,0.441786,PSF-01133_20240429140510,0,0,0,127.973198,409.611237,0.687574,0.5,0.8,36.33503,79.59,71.82,20.75,23.23,98.29,156.9,155.6,0.9,132,3.781,2,4,212,,,,,,,,0:00:00,0000-00-00,nan,nan,nan,0,nan,14:03:11,4/29/2024,-1.57,0.114,0.468,-9999,0.22,0.412,-9999,0,150,-9999,-9999,0,rectangular,7000,500,-9999,-9999,55537,55537,55537,0,-9999,0,0,0,0,2.523422,2.448967,1.691648,0.951744,0.323337,0.030071,0.199991,0.224991,127.973198,0.000349,2.408414,0.000005,1,2.331839,0,1,0.600047,0.602054,0.107606,0,PSF-01133_20240429140510,PFA-00959,PSA-00959,PSF-01133,RHS-01583,2.0.0,2024-04-29T17:45:45.604Z
12,14:05:18,4/29/2024,TIM2024,Zach Peagler,,1,13,Control,0.812773,2.921839,0.635887,6.630295,1.945042,1.764967,2.944406,0.999363,17.956732,19.788813,29.95631,0.441786,PSF-01133_20240429140518,0,0,0,158.7789,359.624146,0.558487,0.5,0.8,28.110229,78.78,71.49,20.82,23.72,98.29,156.7,45.5,70.9,126,3.779,3,0,185,,,,,,,,0:00:00,0000-00-00,nan,nan,nan,0,nan,14:03:11,4/29/2024,-1.57,0.056,0.282,0.41,152.036,76.116,37.224,0,150,-9999,-9999,0,rectangular,7000,500,-9999,-9999,55537,55537,55537,0,-9999,0,0,0,0,2.522953,2.447941,1.689732,0.691818,0.322366,0.034771,0.200929,0.21941,158.7789,0.000348,2.408414,0.000005,1,2.331839,0,1,0.600047,0.602054,0.107606,0,PSF-01133_20240429140518,PFA-00959,PSA-00959,PSF-01133,RHS-01583,2.0.0,2024-04-29T17:45:45.604Z
13,14:05:30,4/29/2024,TIM2024,Zach Peagler,,2,1,CG,0.576459,2.921888,0.48147,4.891461,1.889438,1.756523,2.863815,0.974377,17.871689,19.224022,29.137789,0.441786,PSF-01133_20240429140530,0,0,0,132.502563,465.802429,0.715539,0.5,0.8,34.872803,75.99,70.65,20.94,23.26,98.29,156.7,155.9,0.5,122,3.78,-12,7,230,,,,,,,,0:00:00,0000-00-00,nan,nan,nan,0,nan,14:03:11,4/29/2024,-1.57,-0.042,0.169,0.334,130.561,66.077,30.994,0,150,-9999,-9999,0,rectangular,7000,500,-9999,-9999,55537,55537,55537,0,-9999,0,0,0,0,2.521756,2.444404,1.689786,0.952584,0.320879,0.028178,0.202383,0.215864,132.502563,0.000355,2.408414,0.000005,1,2.331839,0,1,0.600047,0.602054,0.107606,0,PSF-01133_20240429140530,PFA-00959,PSA-00959,PSF-01133,RHS-01583,2.0.0,2024-04-29T17:45:45.604Z
14,14:05:42,4/29/2024,TIM2024,Zach Peagler,,2,2,Control,0.619039,2.921964,0.510819,4.969593,1.89569,1.76066,2.828964,0.933274,17.912451,19.286215,28.78108,0.441786,PSF-01133_20240429140542,0,0,0,130.635025,439.670563,0.70288,0.5,0.8,39.541908,75.65,70.26,21.06,23.05,98.29,156.7,155.7,0.7,141,3.779,-9,-1,264,,,,,,,,0:00:00,0000-00-00,nan,nan,nan,0,nan,14:03:11,4/29/2024,-1.57,-0.239,0.021,0.27,-20.627,13.843,6.801,0,150,-9999,-9999,0,rectangular,7000,500,-9999,-9999,55537,55537,55537,0,-9999,0,0,0,0,2.521197,2.443955,1.689867,0.952023,0.319254,0.024432,0.203934,0.23257,130.635025,0.000358,2.408414,0.000005,1,2.331839,0,1,0.600047,0.602054,0.107606,0,PSF-01133_20240429140542,PFA-00959,PSA-00959,PSF-01133,RHS-01583,2.0.0,2024-04-29T17:45:45.604Z
15,14:05:51,4/29/2024,TIM2024,Zach Peagler,,2,3,Liquid,0.546091,2.922096,0.460105,4.68708,1.884283,1.756923,2.861442,0.977159,17.873938,19.169622,29.110682,0.441786,PSF-01133_20240429140551,0,0,0,133.383759,392.602814,0.660258,0.5,0.8,33.974861,74.82,69.76,21.15,23.24,98.3,156.8,155.6,0.7,129,3.778,-18,-6,326,,,,,,,,0:00:00,0000-00-00,nan,nan,nan,0,nan,14:03:11,4/29/2024,-1.57,0.129,0.138,0.231,0.809,11.314,4.945,0,150,-9999,-9999,0,rectangular,7000,500,-9999,-9999,55537,55537,55537,0,-9999,0,0,0,0,2.520483,2.442891,1.69001,0.951772,0.318207,0.025668,0.204885,0.221907,133.383759,0.000355,2.408414,0.000005,1,2.331839,0,1,0.600047,0.602054,0.107606,0,PSF-01133_20240429140551,PFA-00959,PSA-00959,PSF-01133,RHS-01583,2.0.0,2024-04-29T17:45:45.604Z
16,14:06:03,4/29/2024,TIM2024,Zach Peagler,,2,4,CBG,0.467679,2.921691,0.403147,4.343789,1.887892,1.769825,2.921109,1.033217,18.004826,19.205954,29.7171,0.441786,PSF-01133_20240429140603,0,0,0,124.868629,413.722168,0.698182,0.5,0.8,34.844093,74.44,69.78,21.26,23.58,98.3,156.7,155.4,0.8,125,3.778,-19,0,313,,,,,,,,0:00:00,0000-00-00,nan,nan,nan,0,nan,14:03:11,4/29/2024,-1.57,0.096,0.239,0.424,41.592,20.301,10.453,0,150,-9999,-9999,0,rectangular,7000,500,-9999,-9999,55537,55537,55537,0,-9999,0,0,0,0,2.52048,2.442384,1.689573,0.951176,0.316736,0.028287,0.206278,0.218464,124.868629,0.000357,2.408414,0.000005,1,2.331839,0,1,0.600047,0.602054,0.107606,0,PSF-01133_20240429140603,PFA-00959,PSA-00959,PSF-01133,RHS-01583,2.0.0,2024-04-29T17:45:45.604Z
17,14:06:19,4/29/2024,TIM2024,Zach Peagler,,2,7,Liquid,0.404325,2.920614,0.355158,3.407112,1.89943,1.80675,2.819823,0.920393,18.379683,19.322496,28.685455,0.441786,PSF-01133_20240429140619,0,0,0,121.599556,386.881104,0.685693,0.5,0.8,34.177055,74.12,70.51,21.43,23,98.3,156.6,155.4,0.8,125,3.776,-9,0,323,,,,,,,,0:00:00,0000-00-00,nan,nan,nan,0,nan,14:03:11,4/29/2024,-1.57,-0.206,-0.286,-0.003,97.484,1.398,15.138,0,150,-9999,-9999,0,rectangular,7000,500,-9999,-9999,55537,55537,55537,0,-9999,0,0,0,0,2.521451,2.441961,1.688414,0.951121,0.314612,0.019699,0.208274,0.218323,121.599556,0.000354,2.408414,0.000005,1,2.331839,0,1,0.600047,0.602054,0.107606,0,PSF-01133_20240429140619,PFA-00959,PSA-00959,PSF-01133,RHS-01583,2.0.0,2024-04-29T17:45:45.604Z
18,14:06:27,4/29/2024,TIM2024,Zach Peagler,,2,8,CBG,0.789823,2.921659,0.621745,5.852221,1.972904,1.813973,2.87531,0.902406,18.4541,20.070948,29.251402,0.441786,PSF-01133_20240429140627,0,0,0,124.949455,373.219727,0.665212,0.5,0.8,34.757362,76.63,70.46,21.51,23.32,98.3,156.7,155.8,0.6,131,3.748,-16,5,273,,,,,,,,0:00:00,0000-00-00,nan,nan,nan,0,nan,14:03:11,4/29/2024,-1.57,0.266,0.624,-9999,0.099,-1.49,-9999,0,150,-9999,-9999,0,rectangular,7000,500,-9999,-9999,55537,55537,55537,0,-9999,0,0,0,0,2.521367,2.445114,1.689538,0.952151,0.31365,0.022519,0.209121,0.223669,124.949455,0.000346,2.408414,0.000005,1,2.331839,0,1,0.600047,0.602054,0.107606,0,PSF-01133_20240429140627,PFA-00959,PSA-00959,PSF-01133,RHS-01583,2.0.0,2024-04-29T17:45:45.604Z
19,14:06:35,4/29/2024,TIM2024,Zach Peagler,,2,9,CG,0.589164,2.922739,0.490325,4.987282,1.944421,1.809059,2.919471,0.97505,18.404575,19.781687,29.70142,0.441786,PSF-01133_20240429140635,0,0,0,126.329185,404.391296,0.687607,0.5,0.8,35.4468,75.19,69.96,21.58,23.58,98.29,156.8,155.4,0.9,129,3.776,-16,4,264,,,,,,,,0:00:00,0000-00-00,nan,nan,nan,0,nan,14:03:11,4/29/2024,-1.57,0.016,0.391,-9999,0.413,0.074,-9999,0,150,-9999,-9999,0,rectangular,7000,500,-9999,-9999,55537,55537,55537,0,-9999,0,0,0,0,2.520656,2.443285,1.690704,0.951226,0.312745,0.0246,0.209907,0.222116,126.329185,0.000354,2.408414,0.000005,1,2.331839,0,1,0.600047,0.602054,0.107606,0,PSF-01133_20240429140635,PFA-00959,PSA-00959,PSF-01133,RHS-01583,2.0.0,2024-04-29T17:45:45.604Z
20,14:06:47,4/29/2024,TIM2024,Zach Peagler,,2,11,Liquid,0.57305,2.920552,0.479053,4.608947,1.942328,1.817018,2.86486,0.922532,18.486015,19.760891,29.146568,0.441786,PSF-01133_20240429140647,0,0,0,130.511993,436.125031,0.700746,0.5,0.8,37.388878,74.54,69.73,21.7,23.26,98.29,156.6,156,0.4,133,3.746,-18,2,268,,,,,,,,0:00:00,0000-00-00,nan,nan,nan,0,nan,14:03:11,4/29/2024,-1.57,0.105,0.194,0.254,18.361,9.453,4.874,0,150,-9999,-9999,0,rectangular,7000,500,-9999,-9999,55537,55537,55537,0,-9999,0,0,0,0,2.520311,2.442439,1.688348,0.952708,0.31118,0.019597,0.211358,0.226125,130.511993,0.00036,2.408414,0.000005,1,2.331839,0,1,0.600047,0.602054,0.107606,0,PSF-01133_20240429140647,PFA-00959,PSA-00959,PSF-01133,RHS-01583,2.0.0,2024-04-29T17:45:45.604Z
21,14:06:55,4/29/2024,TIM2024,Zach Peagler,,2,12,CBG,0.644493,2.922898,0.528057,5.333811,1.962253,1.817534,2.930378,0.968125,18.49107,19.963408,29.812834,0.441786,PSF-01133_20240429140655,0,0,0,122.835159,424.138428,0.710389,0.5,0.8,38.304241,74.96,69.43,21.78,23.64,98.29,156.9,155.7,0.8,135,3.746,-17,11,267,,,,,,,,0:00:00,0000-00-00,nan,nan,nan,0,nan,14:03:11,4/29/2024,-1.57,0.115,0.303,-9999,0.21,0.324,-9999,0,150,-9999,-9999,0,rectangular,7000,500,-9999,-9999,55537,55537,55537,0,-9999,0,0,0,0,2.519878,2.442957,1.690876,0.951872,0.310246,0.023043,0.212189,0.227379,122.835159,0.000359,2.408414,0.000005,1,2.331839,0,1,0.600047,0.602054,0.107606,0,PSF-01133_20240429140655,PFA-00959,PSA-00959,PSF-01133,RHS-01583,2.0.0,2024-04-29T17:45:45.604Z
22,14:07:02,4/29/2024,TIM2024,Zach Peagler,,2,13,CG,0.362676,2.920383,0.322611,3.695173,1.926327,1.825829,3.023838,1.09751,18.575083,19.597507,30.763041,0.441786,PSF-01133_20240429140702,0,0,0,137.580154,416.00238,0.66928,0.5,0.8,36.374611,73.27,69.45,21.85,24.16,98.29,156.5,155.3,0.8,136,3.774,-3,13,215,,,,,,,,0:00:00,0000-00-00,nan,nan,nan,0,nan,14:03:11,4/29/2024,-1.57,-0.171,0.199,-9999,136.428,68.491,-9999,0,150,-9999,-9999,0,rectangular,7000,500,-9999,-9999,55537,55537,55537,0,-9999,0,0,0,0,2.519887,2.440811,1.688167,0.951051,0.309372,0.028258,0.212961,0.228331,137.580154,0.000357,2.408414,0.000005,1,2.331839,0,1,0.600047,0.602054,0.107606,0,PSF-01133_20240429140702,PFA-00959,PSA-00959,PSF-01133,RHS-01583,2.0.0,2024-04-29T17:45:45.604Z
23,14:07:11,4/29/2024,TIM2024,Zach Peagler,,3,1,CBG,0.390013,2.922718,0.344096,4.000915,1.921057,1.812434,3.03519,1.114133,18.438061,19.543098,30.877281,0.441786,PSF-01133_20240429140711,0,0,0,137.574081,400.444153,0.656446,0.5,0.8,31.94759,72.69,68.58,21.93,24.22,98.3,156.8,155.6,0.8,122,3.774,-9,3,224,,,,,,,,0:00:00,0000-00-00,nan,nan,nan,0,nan,14:03:11,4/29/2024,-1.57,0.061,0.154,0.111,0.561,-0.641,-1.254,0,150,-9999,-9999,0,rectangular,7000,500,-9999,-9999,55537,55537,55537,0,-9999,0,0,0,0,2.518659,2.44006,1.690681,0.951761,0.308312,0.028006,0.213911,0.215711,137.083054,0.000354,2.408414,0.000005,1,2.331839,0,1,0.600047,0.602054,0.107606,0,PSF-01133_20240429140711,PFA-00959,PSA-00959,PSF-01133,RHS-01583,2.0.0,2024-04-29T17:45:45.604Z
24,14:07:26,4/29/2024,TIM2024,Zach Peagler,,3,2,CG,0.340453,2.920137,0.304905,3.195992,1.905469,1.818502,2.910643,1.005174,18.498762,19.383432,29.608591,0.441786,PSF-01133_20240429140726,0,0,0,142.364853,388.135681,0.633209,0.5,0.8,32.755482,71.49,68.23,22.07,23.53,98.3,156.5,155.2,0.8,129,3.773,-15,1,178,,,,,,,,0:00:00,0000-00-00,nan,nan,nan,0,nan,14:03:11,4/29/2024,-1.57,-0.012,0.138,0.231,135.334,68.628,34.375,0,150,-9999,-9999,0,rectangular,7000,500,-9999,-9999,55537,55537,55537,0,-9999,0,0,0,0,2.51814,2.438519,1.687902,0.950723,0.306602,0.018411,0.21551,0.222512,139.90509,0.000358,2.408414,0.000005,1,2.331839,0,1,0.600047,0.602054,0.107606,0,PSF-01133_20240429140726,PFA-00959,PSA-00959,PSF-01133,RHS-01583,2.0.0,2024-04-29T17:45:45.604Z
25,14:07:33,4/29/2024,TIM2024,Zach Peagler,,3,3,Control,0.313923,2.921651,0.283465,3.188419,1.885316,1.798637,2.963822,1.078506,18.295801,19.177504,30.148104,0.441786,PSF-01133_20240429140733,0,0,0,134.875061,393.495087,0.657238,0.5,0.8,33.84478,70.43,67.19,22.14,23.83,98.31,156.7,154.5,1.4,129,3.773,-11,0,186,,,,,,,,0:00:00,0000-00-00,nan,nan,nan,0,nan,14:03:11,4/29/2024,-1.57,-0.061,0.058,-9999,0.623,0.612,-9999,0,150,-9999,-9999,0,rectangular,7000,500,-9999,-9999,55537,55537,55537,0,-9999,0,0,0,0,2.516672,2.437151,1.68953,0.948701,0.305711,0.021035,0.216321,0.221993,134.875061,0.00036,2.408414,0.000005,1,2.331839,0,1,0.600047,0.602054,0.107606,0,PSF-01133_20240429140733,PFA-00959,PSA-00959,PSF-01133,RHS-01583,2.0.0,2024-04-29T17:45:45.604Z
26,14:07:42,4/29/2024,TIM2024,Zach Peagler,,3,4,Liquid,0.356027,2.920789,0.317344,3.087876,1.904287,1.820304,2.837749,0.933463,18.517092,19.371405,28.867081,0.441786,PSF-01133_20240429140742,0,0,0,150.082825,375.595459,0.600414,0.5,0.8,32.596886,70.79,67.67,22.22,23.11,98.3,156.6,154.2,1.5,136,3.773,-10,-2,305,,,,,,,,0:00:00,0000-00-00,nan,nan,nan,0,nan,14:03:11,4/29/2024,-1.57,0.078,0.206,0.172,0.006,0.274,-0.664,0,150,-9999,-9999,0,rectangular,7000,500,-9999,-9999,55537,55537,55537,0,-9999,0,0,0,0,2.51732,2.437598,1.688603,0.948019,0.304734,0.011881,0.217185,0.228202,150.082825,0.000354,2.408414,0.000005,1,2.331839,0,1,0.600047,0.602054,0.107606,0,PSF-01133_20240429140742,PFA-00959,PSA-00959,PSF-01133,RHS-01583,2.0.0,2024-04-29T17:45:45.604Z
27,14:07:49,4/29/2024,TIM2024,Zach Peagler,,3,5,CBG,0.312401,2.920991,0.282218,2.953454,1.932698,1.852403,2.936051,1.003353,18.842468,19.659222,29.865234,0.441786,PSF-01133_20240429140749,0,0,0,137.385605,369.293335,0.627977,0.5,0.8,36.118031,71.56,68.59,22.29,23.67,98.31,156.6,155.1,0.9,144,3.772,-20,-1,299,,,,,,,,0:00:00,0000-00-00,nan,nan,nan,0,nan,14:03:11,4/29/2024,-1.57,0.079,0.16,-9999,31.662,16.228,-9999,0,150,-9999,-9999,0,rectangular,7000,500,-9999,-9999,55537,55537,55537,0,-9999,0,0,0,0,2.518591,2.438569,1.68882,0.95049,0.303952,0.017601,0.217883,0.235364,137.385605,0.000352,2.408414,0.000005,1,2.331839,0,1,0.600047,0.602054,0.107606,0,PSF-01133_20240429140749,PFA-00959,PSA-00959,PSF-01133,RHS-01583,2.0.0,2024-04-29T17:45:45.604Z
28,14:07:57,4/29/2024,TIM2024,Zach Peagler,,3,6,CG,0.424118,2.922116,0.370363,3.53773,1.963642,1.867577,2.879583,0.915941,18.996628,19.973774,29.290545,0.441786,PSF-01133_20240429140757,0,0,0,127.648117,439.739929,0.709719,0.5,0.8,40.426685,72.35,68.81,22.37,23.35,98.31,156.8,155.3,0.9,142,3.743,-18,9,304,,,,,,,,0:00:00,0000-00-00,nan,nan,nan,0,nan,14:03:11,4/29/2024,-1.57,0.055,0.201,0.24,2.672,2.119,-0.042,0,150,-9999,-9999,0,rectangular,7000,500,-9999,-9999,55537,55537,55537,0,-9999,0,0,0,0,2.51887,2.439542,1.690031,0.950876,0.302944,0.012973,0.218803,0.234135,127.648117,0.000363,2.408414,0.000005,1,2.331839,0,1,0.600047,0.602054,0.107606,0,PSF-01133_20240429140757,PFA-00959,PSA-00959,PSF-01133,RHS-01583,2.0.0,2024-04-29T17:45:45.604Z
29,14:08:04,4/29/2024,TIM2024,Zach Peagler,,3,7,Control,0.438512,2.920661,0.381268,3.594472,1.971772,1.874065,2.875748,0.903976,19.063004,20.056881,29.252131,0.441786,PSF-01133_20240429140804,0,0,0,130.699753,397.602783,0.671281,0.5,0.8,37.42617,72.37,68.78,22.43,23.33,98.31,156.6,154.8,1.1,139,3.743,-14,5,291,,,,,,,,0:00:00,0000-00-00,nan,nan,nan,0,nan,14:03:11,4/29/2024,-1.57,-0.002,0.174,-9999,0.335,0.292,-9999,0,150,-9999,-9999,0,rectangular,7000,500,-9999,-9999,55537,55537,55537,0,-9999,0,0,0,0,2.518826,2.439563,1.688465,0.949607,0.302191,0.012014,0.219489,0.231451,130.699753,0.000357,2.408414,0.000005,1,2.331839,0,1,0.600047,0.602054,0.107606,0,PSF-01133_20240429140804,PFA-00959,PSA-00959,PSF-01133,RHS-01583,2.0.0,2024-04-29T17:45:45.604Z
30,14:08:10,4/29/2024,TIM2024,Zach Peagler,,3,8,Liquid,0.339674,2.921066,0.30429,2.780534,1.952014,1.876439,2.828514,0.8765,19.086811,19.855545,28.771152,0.441786,PSF-01133_20240429140810,0,0,0,132.95639,403.402435,0.670413,0.5,0.8,34.535172,71.39,68.63,22.49,23.05,98.31,156.6,154.7,1.2,129,3.771,-15,-1,286,,,,,,,,0:00:00,0000-00-00,nan,nan,nan,0,nan,14:03:11,4/29/2024,-1.57,0.009,0.112,-9999,0.651,0.472,-9999,0,150,-9999,-9999,0,rectangular,7000,500,-9999,-9999,55537,55537,55537,0,-9999,0,0,0,0,2.518597,2.438315,1.6889,0.949427,0.30149,0.008233,0.220108,0.222033,132.95639,0.000364,2.408414,0.000005,1,2.331839,0,1,0.600047,0.602054,0.107606,0,PSF-01133_20240429140810,PFA-00959,PSA-00959,PSF-01133,RHS-01583,2.0.0,2024-04-29T17:45:45.604Z
31,14:08:17,4/29/2024,TIM2024,Zach Peagler,,3,9,CBG,0.553453,2.920858,0.465289,4.423593,2.004026,1.883831,2.915356,0.911329,19.160887,20.383419,29.652761,0.441786,PSF-01133_20240429140817,0,0,0,123.663071,427.742249,0.710893,0.5,0.8,36.975628,73.03,68.65,22.55,23.55,98.32,156.6,155.5,0.7,130,3.742,-13,2,261,,,,,,,,0:00:00,0000-00-00,nan,nan,nan,0,nan,14:03:11,4/29/2024,-1.57,0.178,0.21,-9999,0.121,0.188,-9999,0,150,-9999,-9999,0,rectangular,7000,500,-9999,-9999,55537,55537,55537,0,-9999,0,0,0,0,2.518609,2.440375,1.688677,0.951567,0.300764,0.013261,0.220788,0.223142,123.663071,0.000358,2.408414,0.000005,1,2.331839,0,1,0.600047,0.602054,0.107606,0,PSF-01133_20240429140817,PFA-00959,PSA-00959,PSF-01133,RHS-01583,2.0.0,2024-04-29T17:45:45.604Z
32,14:08:24,4/29/2024,TIM2024,Zach Peagler,,3,10,CG,0.400584,2.920163,0.352262,3.400066,1.969755,1.877297,2.895132,0.925377,19.096567,20.037079,29.450359,0.441786,PSF-01133_20240429140824,0,0,0,123.853325,431.513428,0.712979,0.5,0.8,38.608055,71.54,68.18,22.61,23.44,98.31,156.5,154.7,1.1,135,3.742,-13,5,246,,,,,,,,0:00:00,0000-00-00,nan,nan,nan,0,nan,14:03:11,4/29/2024,-1.57,0.241,0.083,-9999,0.14,-0.968,-9999,0,150,-9999,-9999,0,rectangular,7000,500,-9999,-9999,55537,55537,55537,0,-9999,0,0,0,0,2.517941,2.438473,1.687931,0.94944,0.300089,0.011303,0.221408,0.22789,123.853325,0.000359,2.408414,0.000005,1,2.331839,0,1,0.600047,0.602054,0.107606,0,PSF-01133_20240429140824,PFA-00959,PSA-00959,PSF-01133,RHS-01583,2.0.0,2024-04-29T17:45:45.604Z
33,14:08:29,4/29/2024,TIM2024,Zach Peagler,,3,11,Control,0.449499,2.921559,0.389562,3.657843,1.984203,1.884861,2.884395,0.900192,19.17355,20.184099,29.341213,0.441786,PSF-01133_20240429140829,0,0,0,125.438332,410.82608,0.694668,0.5,0.8,37.787838,71.85,68.26,22.66,23.38,98.31,156.7,77.3,50.6,136,3.771,-6,12,259,,,,,,,,0:00:00,0000-00-00,nan,nan,nan,0,nan,14:03:11,4/29/2024,-1.57,0.2,0.235,-9999,0.138,-1.684,-9999,0,150,-9999,-9999,0,rectangular,7000,500,-9999,-9999,55537,55537,55537,0,-9999,0,0,0,0,2.51804,2.438868,1.689431,0.760271,0.299522,0.010062,0.221913,0.228438,121.513725,0.000347,2.408414,0.000005,1,2.331839,0,1,0.600047,0.602054,0.107606,0,PSF-01133_20240429140829,PFA-00959,PSA-00959,PSF-01133,RHS-01583,2.0.0,2024-04-29T17:45:45.604Z
34,14:08:41,4/29/2024,TIM2024,Zach Peagler,,3,12,Liquid,0.348781,2.922438,0.311593,3.173624,1.953823,1.867672,2.930115,0.976292,19.000391,19.876831,29.808949,0.441786,PSF-01133_20240429140841,0,0,0,110.74054,376.560333,0.705916,0.5,0.8,32.449425,70.3,67.2,22.76,23.64,98.3,156.8,153.5,2.1,115,3.77,-20,33,270,,,,,,,,0:00:00,0000-00-00,nan,nan,nan,0,nan,14:03:11,4/29/2024,-1.57,0.034,0.04,0.104,-3.683,-0.308,4.484,0,150,-9999,-9999,0,rectangular,7000,500,-9999,-9999,55537,55537,55537,0,-9999,0,0,0,0,2.516543,2.436877,1.690379,0.946302,0.298249,0.011831,0.223221,0.209714,108.722092,0.000351,2.408414,0.000005,1,2.331839,0,1,0.600047,0.602054,0.107606,0,PSF-01133_20240429140841,PFA-00959,PSA-00959,PSF-01133,RHS-01583,2.0.0,2024-04-29T17:45:45.604Z
35,14:08:51,4/29/2024,TIM2024,Zach Peagler,,3,13,CBG,0.302006,2.921431,0.273711,2.846779,1.968418,1.891085,2.965173,0.996756,19.2374,20.024088,30.163765,0.441786,PSF-01133_20240429140851,0,0,0,122.116684,422.409668,0.710905,0.5,0.8,37.218624,70.48,67.71,22.84,23.83,98.3,156.7,154.7,1.3,131,3.77,-13,-2,271,,,,,,,,0:00:00,0000-00-00,nan,nan,nan,0,nan,14:03:11,4/29/2024,-1.57,-0.06,0.028,0.194,120.699,60.982,30.141,0,150,-9999,-9999,0,rectangular,7000,500,-9999,-9999,55537,55537,55537,0,-9999,0,0,0,0,2.517238,2.437093,1.689293,0.949355,0.297293,0.01318,0.224183,0.2239,122.116684,0.000353,2.408414,0.000005,1,2.331839,0,1,0.600047,0.602054,0.107606,0,PSF-01133_20240429140851,PFA-00959,PSA-00959,PSF-01133,RHS-01583,2.0.0,2024-04-29T17:45:45.604Z
36,14:09:01,4/29/2024,TIM2024,Zach Peagler,,4,1,Liquid,0.276116,2.920313,0.252265,2.650073,1.954286,1.882222,2.961142,1.006856,19.147345,19.880426,30.122908,0.441786,PSF-01133_20240429140901,0,0,0,138.592606,380.467407,0.635731,0.5,0.8,28.686441,69.6,67.04,22.93,23.81,98.3,156.5,154.7,1.2,113,3.77,-8,7,207,,,,,,,,0:00:00,0000-00-00,nan,nan,nan,0,nan,14:03:11,4/29/2024,-1.57,0.105,0.002,0.028,1.109,0.486,-1.681,0,150,-9999,-9999,0,rectangular,7000,500,-9999,-9999,55537,55537,55537,0,-9999,0,0,0,0,2.516279,2.435964,1.688091,0.949323,0.296252,0.011921,0.225266,0.207839,137.749664,0.000356,2.408414,0.000005,1,2.331839,0,1,0.600047,0.602054,0.107606,0,PSF-01133_20240429140901,PFA-00959,PSA-00959,PSF-01133,RHS-01583,2.0.0,2024-04-29T17:45:45.604Z
37,14:09:14,4/29/2024,TIM2024,Zach Peagler,,4,2,CBG,0.378438,2.92189,0.335044,3.606808,2.00252,1.904604,3.033718,1.031198,19.3738,20.369802,30.859238,0.441786,PSF-01133_20240429140914,0,0,0,120.422241,431.831726,0.721136,0.5,0.8,30.178253,70.86,67.39,23.04,24.21,98.31,156.7,155.6,0.7,105,3.769,-25,-1,180,,,,,,,,0:00:00,0000-00-00,nan,nan,nan,0,nan,14:03:11,4/29/2024,-1.57,0.013,0.163,0.303,0.61,0.544,0.307,0,150,-9999,-9999,0,rectangular,7000,500,-9999,-9999,55537,55537,55537,0,-9999,0,0,0,0,2.516746,2.437532,1.689787,0.951681,0.294969,0.015313,0.226625,0.200563,120.422241,0.000358,2.408414,0.000005,1,2.331839,0,1,0.600047,0.602054,0.107606,0,PSF-01133_20240429140914,PFA-00959,PSA-00959,PSF-01133,RHS-01583,2.0.0,2024-04-29T17:45:45.604Z
38,14:09:23,4/29/2024,TIM2024,Zach Peagler,,4,3,CG,0.209594,2.922444,0.195568,2.168981,1.950109,1.89122,3.012907,1.062797,19.237362,19.836378,30.647079,0.441786,PSF-01133_20240429140923,0,0,0,124.921204,418.838013,0.701743,0.5,0.8,32.770119,68.68,66.61,23.11,24.1,98.31,156.8,154.7,1.3,117,3.769,-20,5,202,,,,,,,,0:00:00,0000-00-00,nan,nan,nan,0,nan,14:03:11,4/29/2024,-1.57,-0.021,0.006,-0.011,75.877,83.651,42.161,0,150,-9999,-9999,0,rectangular,7000,500,-9999,-9999,55537,55537,55537,0,-9999,0,0,0,0,2.515639,2.43476,1.690386,0.949293,0.294069,0.013119,0.227576,0.211337,124.921204,0.000354,2.408414,0.000005,1,2.331839,0,1,0.600047,0.602054,0.107606,0,PSF-01133_20240429140923,PFA-00959,PSA-00959,PSF-01133,RHS-01583,2.0.0,2024-04-29T17:45:45.604Z
39,14:09:34,4/29/2024,TIM2024,Zach Peagler,,4,4,Control,0.061221,2.923445,0.059965,0.705897,1.869065,1.849898,2.997719,1.128654,18.816797,19.011757,30.492207,0.441786,PSF-01133_20240429140934,0,0,0,146.278381,414.603699,0.647185,0.5,0.8,32.348156,65.48,64.81,23.2,24.02,98.31,156.9,155.5,0.9,125,3.769,-17,9,308,,,,,,,,0:00:00,0000-00-00,nan,nan,nan,0,nan,14:03:11,4/29/2024,-1.57,0.068,0.072,-0.005,0.917,0.59,-1.069,0,150,-9999,-9999,0,rectangular,7000,500,-9999,-9999,55537,55537,55537,0,-9999,0,0,0,0,2.513108,2.430666,1.691467,0.951566,0.293033,0.011143,0.228695,0.218633,146.278381,0.000362,2.408414,0.000005,1,2.331839,0,1,0.600047,0.602054,0.107606,0,PSF-01133_20240429140934,PFA-00959,PSA-00959,PSF-01133,RHS-01583,2.0.0,2024-04-29T17:45:45.604Z
40,14:09:44,4/29/2024,TIM2024,Zach Peagler,,4,5,Liquid,0.260139,2.920746,0.238865,2.411756,1.936991,1.871414,2.90515,0.968158,19.035992,19.703041,29.551134,0.441786,PSF-01133_20240429140944,0,0,0,122.672798,444.529999,0.724039,0.5,0.8,36.90704,67.52,65.23,23.29,23.49,98.31,156.6,155.5,0.7,127,3.768,-17,7,296,,,,,,,,0:00:00,0000-00-00,nan,nan,nan,0,nan,14:03:11,4/29/2024,-1.57,0.005,0.032,0.185,1.463,0.722,108,0,150,-9999,-9999,0,rectangular,7000,500,-9999,-9999,55537,55537,55537,0,-9999,0,0,0,0,2.513679,2.433245,1.688556,0.951351,0.292056,0.004224,0.229752,0.220834,122.672798,0.000362,2.408414,0.000005,1,2.331839,0,1,0.600047,0.602054,0.107606,0,PSF-01133_20240429140944,PFA-00959,PSA-00959,PSF-01133,RHS-01583,2.0.0,2024-04-29T17:45:45.604Z
41,14:09:56,4/29/2024,TIM2024,Zach Peagler,,4,6,CBG,0.223509,2.921367,0.207624,2.343571,1.956842,1.89316,3.038376,1.081533,19.256264,19.904005,30.904812,0.441786,PSF-01133_20240429140956,0,0,0,120.079636,417.852417,0.712627,0.5,0.8,36.05051,67.82,65.61,23.38,24.24,98.31,156.7,42.8,72.7,126,3.768,-18,-7,327,,,,,,,,0:00:00,0000-00-00,nan,nan,nan,0,nan,14:03:11,4/29/2024,-1.57,-0.019,-0.008,-9999,1.325,1.708,-9999,0,150,-9999,-9999,0,rectangular,7000,500,-9999,-9999,55537,55537,55537,0,-9999,0,0,0,0,2.514182,2.433607,1.689225,0.686088,0.29094,0.011671,0.230975,0.219978,120.079636,0.000354,2.408414,0.000005,1,2.331839,0,1,0.600047,0.602054,0.107606,0,PSF-01133_20240429140956,PFA-00959,PSA-00959,PSF-01133,RHS-01583,2.0.0,2024-04-29T17:45:45.604Z
42,14:10:04,4/29/2024,TIM2024,Zach Peagler,,4,7,CG,0.183243,2.921906,0.172429,1.815626,1.969399,1.920094,2.978506,1.009107,19.531359,20.0329,30.297621,0.441786,PSF-01133_20240429141004,0,0,0,121.038795,411.063202,0.705547,0.5,0.8,37.095116,67.99,66.29,23.44,23.91,98.31,156.7,154.9,1.2,131,3.767,-13,9,291,,,,,,,,0:00:00,0000-00-00,nan,nan,nan,0,nan,14:03:11,4/29/2024,-1.57,-0.005,-0.062,0.025,122.181,61.149,29.824,0,150,-9999,-9999,0,rectangular,7000,500,-9999,-9999,55537,55537,55537,0,-9999,0,0,0,0,2.515118,2.433821,1.689805,0.949872,0.29021,0.007146,0.231745,0.224394,121.038795,0.00036,2.408414,0.000005,1,2.331839,0,1,0.600047,0.602054,0.107606,0,PSF-01133_20240429141004,PFA-00959,PSA-00959,PSF-01133,RHS-01583,2.0.0,2024-04-29T17:45:45.604Z
43,14:10:14,4/29/2024,TIM2024,Zach Peagler,,4,9,Liquid,0.236859,2.921661,0.219097,2.262928,1.963233,1.901763,2.953236,0.990003,19.344509,19.969772,30.039965,0.441786,PSF-01133_20240429141014,0,0,0,121.034859,453.528656,0.733126,0.5,0.8,39.509823,67.47,65.36,23.52,23.77,98.31,156.7,155.5,0.8,135,3.767,-10,0,260,,,,,,,,0:00:00,0000-00-00,nan,nan,nan,0,nan,14:03:11,4/29/2024,-1.57,0.013,0.021,-9999,0.237,0.401,-9999,0,150,-9999,-9999,0,rectangular,7000,500,-9999,-9999,55537,55537,55537,0,-9999,0,0,0,0,2.513801,2.433143,1.689541,0.951413,0.289333,0.004658,0.232732,0.227317,121.034859,0.000352,2.408414,0.000005,1,2.331839,0,1,0.600047,0.602054,0.107606,0,PSF-01133_20240429141014,PFA-00959,PSA-00959,PSF-01133,RHS-01583,2.0.0,2024-04-29T17:45:45.604Z
44,14:10:24,4/29/2024,TIM2024,Zach Peagler,,4,10,CBG,0.340324,2.921193,0.304813,2.897362,1.998903,1.920209,2.90994,0.911037,19.534414,20.334976,29.603016,0.441786,PSF-01133_20240429141024,0,0,0,125.942589,456.494446,0.724109,0.5,0.8,40.328064,68.36,65.66,23.6,23.52,98.3,156.6,155.8,0.5,139,3.766,-6,10,283,,,,,,,,0:00:00,0000-00-00,nan,nan,nan,0,nan,14:03:11,4/29/2024,-1.57,0.049,0.166,0.189,0.082,0.202,0.054,0,150,-9999,-9999,0,rectangular,7000,500,-9999,-9999,55537,55537,55537,0,-9999,0,0,0,0,2.514208,2.434253,1.689037,0.952314,0.288379,0.000912,0.233835,0.231318,125.942589,0.000353,2.408414,0.000005,1,2.331839,0,1,0.600047,0.602054,0.107606,0,PSF-01133_20240429141024,PFA-00959,PSA-00959,PSF-01133,RHS-01583,2.0.0,2024-04-29T17:45:45.604Z
45,14:10:32,4/29/2024,TIM2024,Zach Peagler,,4,11,CG,0.193926,2.921792,0.181856,1.942863,1.962184,1.909417,2.985971,1.023787,19.423891,19.960669,30.37533,0.441786,PSF-01133_20240429141032,0,0,0,115.749481,383.229736,0.697963,0.5,0.8,37.314884,66.88,65.08,23.66,23.95,98.3,156.7,154.5,1.4,134,3.766,-21,0,292,,,,,,,,0:00:00,0000-00-00,nan,nan,nan,0,nan,14:03:11,4/29/2024,-1.57,0.015,-0.039,-9999,68.266,35.054,-9999,0,150,-9999,-9999,0,rectangular,7000,500,-9999,-9999,55537,55537,55537,0,-9999,0,0,0,0,2.513384,2.432366,1.689682,0.948703,0.287753,0.005187,0.234541,0.226362,115.749481,0.00036,2.408414,0.000005,1,2.331839,0,1,0.600047,0.602054,0.107606,0,PSF-01133_20240429141032,PFA-00959,PSA-00959,PSF-01133,RHS-01583,2.0.0,2024-04-29T17:45:45.604Z
46,14:10:53,4/29/2024,TIM2024,Zach Peagler,,4,12,Control,0.001485,2.922762,0.001484,0.020092,1.895019,1.894473,3.191361,1.296342,19.273098,19.278648,32.466759,0.441786,PSF-01133_20240429141053,0,0,0,96.010208,340.021118,0.717635,0.5,0.8,31.488199,64,63.98,23.81,25.06,98.3,156.8,-16.7,110.6,110,3.765,-39,2,294,,,,,,,,0:00:00,0000-00-00,nan,nan,nan,0,nan,14:03:11,4/29/2024,-1.57,-0.007,-0.012,-0.044,92.623,47.1,23.628,0,150,-9999,-9999,0,rectangular,7000,500,-9999,-9999,55537,55537,55537,0,-9999,0,0,0,0,2.511809,2.428662,1.690729,0.571359,0.285994,0.01624,0.236816,0.205072,96.010208,0.000362,2.408414,0.000005,1,2.331839,0,1,0.600047,0.602054,0.107606,0,PSF-01133_20240429141053,PFA-00959,PSA-00959,PSF-01133,RHS-01583,2.0.0,2024-04-29T17:45:45.604Z
47,14:11:10,4/29/2024,TIM2024,Zach Peagler,,5,1,Control,-0.012874,2.920085,-0.012931,-0.149907,1.864186,1.868266,2.975616,1.11143,19.007307,18.965792,30.273224,0.441786,PSF-01133_20240429141110,0,0,0,139.259216,379.504669,0.63305,0.5,0.8,29.163654,62.48,62.61,23.94,23.89,98.29,156.5,154.5,1.3,115,3.765,-14,12,189,,,,,,,,0:00:00,0000-00-00,nan,nan,nan,0,nan,14:03:11,4/29/2024,-1.57,0.034,0.08,0.008,27.541,24.019,11.262,0,150,-9999,-9999,0,rectangular,7000,500,-9999,-9999,55537,55537,55537,0,-9999,0,0,0,0,2.509874,2.426694,1.687846,0.948813,0.284544,0.001306,0.238628,0.209938,138.418442,0.000357,2.408414,0.000005,1,2.331839,0,1,0.600047,0.602054,0.107606,0,PSF-01133_20240429141110,PFA-00959,PSA-00959,PSF-01133,RHS-01583,2.0.0,2024-04-29T17:45:45.604Z
48,14:11:28,4/29/2024,TIM2024,Zach Peagler,,5,2,Liquid,0.043806,2.920296,0.043158,0.519528,1.868983,1.854844,3.022774,1.15379,18.870373,19.014217,30.752375,0.441786,PSF-01133_20240429141128,0,0,0,144.402985,415.841461,0.652745,0.5,0.8,28.483042,62.15,61.68,24.07,24.15,98.29,156.5,155.7,0.5,109,3.735,-19,0,194,,,,,,,,0:00:00,0000-00-00,nan,nan,nan,0,nan,14:03:11,4/29/2024,-1.57,-0.011,-0.063,-0.056,0.281,0.309,-1.173,0,150,-9999,-9999,0,rectangular,7000,500,-9999,-9999,55537,55537,55537,0,-9999,0,0,0,0,2.508537,2.42625,1.688073,0.952065,0.283065,0.002806,0.240489,0.204534,144.402985,0.000358,2.408414,0.000005,1,2.331839,0,1,0.600047,0.602054,0.107606,0,PSF-01133_20240429141128,PFA-00959,PSA-00959,PSF-01133,RHS-01583,2.0.0,2024-04-29T17:45:45.604Z
49,14:11:36,4/29/2024,TIM2024,Zach Peagler,,5,3,CBG,0.024514,2.921715,0.02431,0.31443,1.882411,1.873864,3.121424,1.239013,19.063437,19.150385,31.755272,0.441786,PSF-01133_20240429141136,0,0,0,127.960327,419.189575,0.694744,0.5,0.8,31.518209,62.37,62.08,24.13,24.69,98.3,156.7,155.2,1,113,3.735,-25,9,195,,,,,,,,0:00:00,0000-00-00,nan,nan,nan,0,nan,14:03:11,4/29/2024,-1.57,0.001,-0.041,-0.051,1.199,-9.023,4.154,0,150,-9999,-9999,0,rectangular,7000,500,-9999,-9999,55537,55537,55537,0,-9999,0,0,0,0,2.509085,2.426514,1.689599,0.950692,0.28237,0.008268,0.241288,0.208379,127.960327,0.000357,2.408414,0.000005,1,2.331839,0,1,0.600047,0.602054,0.107606,0,PSF-01133_20240429141136,PFA-00959,PSA-00959,PSF-01133,RHS-01583,2.0.0,2024-04-29T17:45:45.604Z
50,14:11:44,4/29/2024,TIM2024,Zach Peagler,,5,4,CG,0.198757,2.921253,0.186095,1.921788,1.991278,1.939081,2.980694,0.989417,19.727055,20.258074,30.323811,0.441786,PSF-01133_20240429141144,0,0,0,122.627731,385.617249,0.681996,0.5,0.8,32.739983,65.74,64.02,24.19,23.92,98.3,156.6,154.6,1.3,120,3.764,-24,11,203,,,,,,,,0:00:00,0000-00-00,nan,nan,nan,0,nan,14:03:11,4/29/2024,-1.57,0.09,0.067,0.042,2.002,2.066,0.184,0,150,-9999,-9999,0,rectangular,7000,500,-9999,-9999,55537,55537,55537,0,-9999,0,0,0,0,2.511774,2.430814,1.689102,0.949114,0.281713,-0.001246,0.242033,0.214242,122.627731,0.000369,2.408414,0.000005,1,2.331839,0,1,0.600047,0.602054,0.107606,0,PSF-01133_20240429141144,PFA-00959,PSA-00959,PSF-01133,RHS-01583,2.0.0,2024-04-29T17:45:45.604Z
51,14:11:53,4/29/2024,TIM2024,Zach Peagler,,5,5,Control,0.171689,2.920737,0.162157,1.800457,1.980492,1.931566,3.043965,1.063473,19.651108,20.148861,30.968281,0.441786,PSF-01133_20240429141153,0,0,0,157.807236,377.363922,0.581817,0.5,0.8,32.144321,65.14,63.53,24.25,24.27,98.29,156.6,155,1,138,3.763,-15,-11,224,,,,,,,,0:00:00,0000-00-00,nan,nan,nan,0,nan,14:03:11,4/29/2024,-1.57,0.013,0.065,0.005,54.948,27.654,13.242,0,150,-9999,-9999,0,rectangular,7000,500,-9999,-9999,55537,55537,55537,0,-9999,0,0,0,0,2.511078,2.430035,1.688547,0.950158,0.281006,0.00204,0.242889,0.230329,157.807236,0.00036,2.408414,0.000005,1,2.331839,0,1,0.600047,0.602054,0.107606,0,PSF-01133_20240429141153,PFA-00959,PSA-00959,PSF-01133,RHS-01583,2.0.0,2024-04-29T17:45:45.604Z
52,14:12:06,4/29/2024,TIM2024,Zach Peagler,,5,6,Liquid,0.089502,2.922563,0.086842,0.994335,1.950944,1.923955,3.047782,1.096838,19.573523,19.848103,31.00688,0.441786,PSF-01133_20240429141206,0,0,0,123.140213,420.953033,0.707473,0.5,0.8,36.899765,63.8,62.92,24.35,24.29,98.29,156.8,155.4,0.9,130,3.763,-23,-13,308,,,,,,,,0:00:00,0000-00-00,nan,nan,nan,0,nan,14:03:11,4/29/2024,-1.57,0.034,0.033,0.058,0.182,0.055,-1.475,0,150,-9999,-9999,0,rectangular,7000,500,-9999,-9999,55537,55537,55537,0,-9999,0,0,0,0,2.510205,2.428312,1.690514,0.95113,0.279943,0.001187,0.244228,0.223463,124.277473,0.000359,2.408414,0.000005,1,2.331839,0,1,0.600047,0.602054,0.107606,0,PSF-01133_20240429141206,PFA-00959,PSA-00959,PSF-01133,RHS-01583,2.0.0,2024-04-29T17:45:45.604Z
53,14:12:18,4/29/2024,TIM2024,Zach Peagler,,5,7,CBG,0.104957,2.920237,0.101315,1.057563,1.949663,1.920903,2.950147,1.000484,19.541828,19.83441,30.012589,0.441786,PSF-01133_20240429141218,0,0,0,125.869629,434.029694,0.709998,0.5,0.8,38.323036,63.46,62.52,24.42,23.75,98.3,156.5,155,1,135,3.763,-15,-14,307,,,,,,,,0:00:00,0000-00-00,nan,nan,nan,0,nan,14:03:11,4/29/2024,-1.57,0.031,-0.007,-0.036,1.246,0.835,-0.986,0,150,-9999,-9999,0,rectangular,7000,500,-9999,-9999,55537,55537,55537,0,-9999,0,0,0,0,2.509633,2.427859,1.68801,0.950026,0.279062,-0.005925,0.245355,0.227504,125.869629,0.000358,2.408414,0.000005,1,2.331839,0,1,0.600047,0.602054,0.107606,0,PSF-01133_20240429141218,PFA-00959,PSA-00959,PSF-01133,RHS-01583,2.0.0,2024-04-29T17:45:45.604Z
54,14:12:25,4/29/2024,TIM2024,Zach Peagler,,5,8,CG,0.073099,2.922141,0.071315,0.764545,1.970222,1.949467,2.997372,1.02715,19.833019,20.044172,30.493946,0.441786,PSF-01133_20240429141225,0,0,0,122.109177,424.786102,0.71254,0.5,0.8,37.522762,63.94,63.26,24.48,24.01,98.29,156.8,154.6,1.4,132,3.763,-10,21,309,,,,,,,,0:00:00,0000-00-00,nan,nan,nan,0,nan,14:03:11,4/29/2024,-1.57,0.005,-0.039,-9999,0.467,-0.131,-9999,0,150,-9999,-9999,0,rectangular,7000,500,-9999,-9999,55537,55537,55537,0,-9999,0,0,0,0,2.51065,2.428455,1.690058,0.948979,0.278497,-0.003494,0.246038,0.224581,118.943451,0.00036,2.408414,0.000005,1,2.331839,0,1,0.600047,0.602054,0.107606,0,PSF-01133_20240429141225,PFA-00959,PSA-00959,PSF-01133,RHS-01583,2.0.0,2024-04-29T17:45:45.604Z
55,14:12:35,4/29/2024,TIM2024,Zach Peagler,,5,9,Control,0.182951,2.921112,0.172168,1.812003,1.992731,1.94351,3.000992,1.008262,19.771816,20.272549,30.529848,0.441786,PSF-01133_20240429141235,0,0,0,121.822716,415.444855,0.706766,0.5,0.8,34.229919,64.4,62.81,24.54,24.03,98.3,156.6,152.1,2.9,121,3.762,-31,-7,308,,,,,,,,0:00:00,0000-00-00,nan,nan,nan,0,nan,14:03:11,4/29/2024,-1.57,0.024,0.153,0.077,-60.381,28.456,76.095,0,150,-9999,-9999,0,rectangular,7000,500,-9999,-9999,55537,55537,55537,0,-9999,0,0,0,0,2.510003,2.429037,1.68895,0.942424,0.277735,-0.004054,0.247056,0.215188,121.912476,0.000359,2.408414,0.000005,1,2.331839,0,1,0.600047,0.602054,0.107606,0,PSF-01133_20240429141235,PFA-00959,PSA-00959,PSF-01133,RHS-01583,2.0.0,2024-04-29T17:45:45.604Z
56,14:12:46,4/29/2024,TIM2024,Zach Peagler,,5,10,Liquid,0.215053,2.921666,0.200309,2.073822,2.014634,1.958335,3.006402,0.991768,19.921108,20.493813,30.582548,0.441786,PSF-01133_20240429141246,0,0,0,128.483887,437.510498,0.70633,0.5,0.8,37.575447,64.82,63.01,24.62,24.06,98.3,156.7,154.8,1.2,133,3.761,-13,-4,327,,,,,,,,0:00:00,0000-00-00,nan,nan,nan,0,nan,14:03:11,4/29/2024,-1.57,0.083,0.158,0.036,-67.792,81.868,40.356,0,150,-9999,-9999,0,rectangular,7000,500,-9999,-9999,55537,55537,55537,0,-9999,0,0,0,0,2.510266,2.429561,1.689547,0.949528,0.27692,-0.00456,0.248177,0.225775,128.483887,0.00036,2.408414,0.000005,1,2.331839,0,1,0.600047,0.602054,0.107606,0,PSF-01133_20240429141246,PFA-00959,PSA-00959,PSF-01133,RHS-01583,2.0.0,2024-04-29T17:45:45.604Z
57,14:12:55,4/29/2024,TIM2024,Zach Peagler,,5,11,CBG,0.103452,2.921371,0.099914,1.127746,1.980279,1.949647,3.061362,1.081083,19.833536,20.145157,31.142897,0.441786,PSF-01133_20240429141255,0,0,0,127.078415,436.250916,0.708703,0.5,0.8,37.442028,63.51,62.53,24.67,24.37,98.3,156.7,155.1,1,132,3.761,-11,-6,295,,,,,,,,0:00:00,0000-00-00,nan,nan,nan,0,nan,14:03:11,4/29/2024,-1.57,-0.03,-0.062,-0.049,0.319,0.241,-1.374,0,150,-9999,-9999,0,rectangular,7000,500,-9999,-9999,55537,55537,55537,0,-9999,0,0,0,0,2.50958,2.427876,1.689228,0.950386,0.276322,-0.001724,0.248966,0.224961,127.078415,0.000354,2.408414,0.000005,1,2.331839,0,1,0.600047,0.602054,0.107606,0,PSF-01133_20240429141255,PFA-00959,PSA-00959,PSF-01133,RHS-01583,2.0.0,2024-04-29T17:45:45.604Z
58,14:13:14,4/29/2024,TIM2024,Zach Peagler,,5,12,CG,0.104373,2.920858,0.100772,1.083114,2.009183,1.979758,3.038636,1.029453,20.139194,20.438515,30.910681,0.441786,PSF-01133_20240429141314,0,0,0,95.970871,349.860199,0.725688,0.5,0.8,35.117504,63.97,63.03,24.79,24.24,98.3,156.6,-17,110.9,121,3.76,-24,3,317,,,,,,,,0:00:00,0000-00-00,nan,nan,nan,0,nan,14:03:11,4/29/2024,-1.57,0.01,-0.014,-0.036,61.563,-19.196,24.336,0,150,-9999,-9999,0,rectangular,7000,500,-9999,-9999,55537,55537,55537,0,-9999,0,0,0,0,2.510254,2.428439,1.688677,0.570735,0.274978,-0.004561,0.250959,0.215099,95.970871,0.000356,2.408414,0.000005,1,2.331839,0,1,0.600047,0.602054,0.107606,0,PSF-01133_20240429141314,PFA-00959,PSA-00959,PSF-01133,RHS-01583,2.0.0,2024-04-29T17:45:45.604Z
59,14:13:34,4/29/2024,TIM2024,Zach Peagler,,6,1,CG,0.069074,2.919352,0.067477,0.816804,1.990268,1.968048,3.149087,1.158819,20.020533,20.246571,32.034988,0.441786,PSF-01133_20240429141334,0,0,0,118.968132,438.357697,0.728605,0.5,0.8,31.858109,62.86,62.15,24.93,24.84,98.3,156.4,155.2,0.8,109,3.759,-11,1,205,,,,,,,,0:00:00,0000-00-00,nan,nan,nan,0,nan,14:13:28,4/29/2024,-1.42,0.048,0.087,0.054,38.881,19.527,8.946,0,150,-9999,-9999,0,rectangular,7000,500,-9999,-9999,55537,55537,55537,0,-9999,0,0,0,0,2.508996,2.426795,1.687061,0.950623,0.273494,0.000731,0.253003,0.204732,118.968132,0.000357,2.408414,0.000005,1,2.331839,0,1,0.600047,0.602054,0.107606,0,PSF-01133_20240429141334,PFA-00959,PSA-00959,PSF-01133,RHS-01583,2.0.0,2024-04-29T17:45:45.604Z
60,14:13:47,4/29/2024,TIM2024,Zach Peagler,,6,2,Control,0.091554,2.921397,0.088772,1.0126,2.009912,1.982414,3.102118,1.092206,20.165491,20.445204,31.555328,0.441786,PSF-01133_20240429141347,0,0,0,126.229408,394.585144,0.680096,0.5,0.8,28.750626,63.13,62.26,25.02,24.59,98.31,156.7,154.8,1.2,106,3.759,-21,7,204,,,,,,,,0:00:00,0000-00-00,nan,nan,nan,0,nan,14:13:28,4/29/2024,-1.42,0.002,0.045,0.071,-58.424,28.95,27.657,0,150,-9999,-9999,0,rectangular,7000,500,-9999,-9999,55537,55537,55537,0,-9999,0,0,0,0,2.509123,2.427121,1.689257,0.94961,0.272479,-0.003244,0.254269,0.20151,126.229408,0.000361,2.408414,0.000005,1,2.331839,0,1,0.600047,0.602054,0.107606,0,PSF-01133_20240429141347,PFA-00959,PSA-00959,PSF-01133,RHS-01583,2.0.0,2024-04-29T17:45:45.604Z
61,14:13:55,4/29/2024,TIM2024,Zach Peagler,,6,3,Liquid,0.138094,2.921862,0.131862,1.391002,2.013809,1.976052,3.024253,1.010444,20.101185,20.485266,30.763905,0.441786,PSF-01133_20240429141355,0,0,0,138.370514,464.070068,0.701833,0.5,0.8,33.157452,63.04,61.86,25.08,24.16,98.31,156.7,155.5,0.8,118,3.759,-19,0,217,,,,,,,,0:00:00,0000-00-00,nan,nan,nan,0,nan,14:13:28,4/29/2024,-1.42,-0.028,-0.079,-0.046,0.093,0.26,-1.806,0,150,-9999,-9999,0,rectangular,7000,500,-9999,-9999,55537,55537,55537,0,-9999,0,0,0,0,2.508543,2.426998,1.689757,0.951445,0.271873,-0.008757,0.255039,0.212549,138.370514,0.000365,2.408414,0.000005,1,2.331839,0,1,0.600047,0.602054,0.107606,0,PSF-01133_20240429141355,PFA-00959,PSA-00959,PSF-01133,RHS-01583,2.0.0,2024-04-29T17:45:45.604Z
62,14:14:10,4/29/2024,TIM2024,Zach Peagler,,6,4,CBG,0.175734,2.921532,0.165763,1.815834,2.044821,1.995531,3.093624,1.048804,20.297943,20.799297,31.467411,0.441786,PSF-01133_20240429141410,0,0,0,113.344788,438.153503,0.741313,0.5,0.8,19.691669,63.63,62.1,25.18,24.54,98.31,156.7,22.8,85.4,66,3.759,-35,31,282,,,,,,,,0:00:00,0000-00-00,nan,nan,nan,0,nan,14:13:28,4/29/2024,-1.42,-0.008,0.021,0.121,110.399,55.312,27.618,0,150,-9999,-9999,0,rectangular,7000,500,-9999,-9999,55537,55537,55537,0,-9999,0,0,0,0,2.508861,2.427741,1.689402,0.645929,0.270807,-0.005559,0.256575,0.166611,113.344788,0.000361,2.408414,0.000005,1,2.331839,0,1,0.600047,0.602054,0.107606,0,PSF-01133_20240429141410,PFA-00959,PSA-00959,PSF-01133,RHS-01583,2.0.0,2024-04-29T17:45:45.604Z
63,14:14:22,4/29/2024,TIM2024,Zach Peagler,,6,5,CG,0.110249,2.920836,0.106239,1.206424,1.997302,1.964522,3.084788,1.087486,19.983694,20.317137,31.379364,0.441786,PSF-01133_20240429141422,0,0,0,119.356514,412.59671,0.710719,0.5,0.8,34.430874,61.89,60.88,25.25,24.49,98.31,156.6,113.4,27.6,121,3.757,-22,-11,217,,,,,,,,0:00:00,0000-00-00,nan,nan,nan,0,nan,14:13:28,4/29/2024,-1.42,0.064,0.047,0.041,115.707,58.072,29.173,0,150,-9999,-9999,0,rectangular,7000,500,-9999,-9999,55537,55537,55537,0,-9999,0,0,0,0,2.507135,2.425501,1.688654,0.844476,0.27004,-0.006932,0.25773,0.215217,119.356514,0.000361,2.408414,0.000005,1,2.331839,0,1,0.600047,0.602054,0.107606,0,PSF-01133_20240429141422,PFA-00959,PSA-00959,PSF-01133,RHS-01583,2.0.0,2024-04-29T17:45:45.604Z
64,14:14:41,4/29/2024,TIM2024,Zach Peagler,,6,6,Control,0.191703,2.921603,0.179899,1.951286,2.020028,1.967054,3.058769,1.038741,20.009504,20.548367,31.114771,0.441786,PSF-01133_20240429141441,0,0,0,117.552994,411.055328,0.714021,0.5,0.8,36.097847,62.19,60.56,25.36,24.35,98.31,156.7,154.9,1.1,126,3.758,-10,-10,312,,,,,,,,0:00:00,0000-00-00,nan,nan,nan,0,nan,14:13:28,4/29/2024,-1.42,0.004,0.002,0.051,-42.168,-22.817,-0.373,0,150,-9999,-9999,0,rectangular,7000,500,-9999,-9999,55537,55537,55537,0,-9999,0,0,0,0,2.506664,2.42586,1.689478,0.949889,0.268861,-0.009827,0.259649,0.219905,118.170616,0.000358,2.408414,0.000005,1,2.331839,0,1,0.600047,0.602054,0.107606,0,PSF-01133_20240429141441,PFA-00959,PSA-00959,PSF-01133,RHS-01583,2.0.0,2024-04-29T17:45:45.604Z
65,14:14:50,4/29/2024,TIM2024,Zach Peagler,,6,7,Liquid,0.070408,2.92081,0.06875,0.639406,1.974569,1.957192,2.866318,0.891749,19.909735,20.086504,29.157917,0.441786,PSF-01133_20240429141450,0,0,0,118.866562,405.295715,0.706716,0.5,0.8,31.974222,60.62,60.09,25.4,23.27,98.3,156.6,48.6,69,113,3.758,-26,-7,313,,,,,,,,0:00:00,0000-00-00,nan,nan,nan,0,nan,14:13:28,4/29/2024,-1.42,-0.01,-0.115,-9999,114.884,56.648,-9999,0,150,-9999,-9999,0,rectangular,7000,500,-9999,-9999,55537,55537,55537,0,-9999,0,0,0,0,2.505995,2.423842,1.688625,0.698116,0.26836,-0.022668,0.260483,0.208105,118.866562,0.000365,2.408414,0.000005,1,2.331839,0,1,0.600047,0.602054,0.107606,0,PSF-01133_20240429141450,PFA-00959,PSA-00959,PSF-01133,RHS-01583,2.0.0,2024-04-29T17:45:45.604Z
66,14:15:01,4/29/2024,TIM2024,Zach Peagler,,6,8,CBG,0.058902,2.921202,0.057738,0.614035,2.001027,1.984349,3.019753,1.018726,20.186462,20.356119,30.719452,0.441786,PSF-01133_20240429141501,0,0,0,120.547058,411.610016,0.707133,0.5,0.8,33.914474,61.23,60.72,25.46,24.14,98.3,156.6,120.6,23,120,3.757,-20,-1,332,,,,,,,,0:00:00,0000-00-00,nan,nan,nan,0,nan,14:13:28,4/29/2024,-1.42,-0.01,-0.002,0.027,5.082,-84.69,10.768,0,150,-9999,-9999,0,rectangular,7000,500,-9999,-9999,55537,55537,55537,0,-9999,0,0,0,0,2.506869,2.424616,1.689047,0.862029,0.267772,-0.013456,0.261531,0.214141,120.547058,0.000358,2.408414,0.000005,1,2.331839,0,1,0.600047,0.602054,0.107606,0,PSF-01133_20240429141501,PFA-00959,PSA-00959,PSF-01133,RHS-01583,2.0.0,2024-04-29T17:45:45.604Z
67,14:15:12,4/29/2024,TIM2024,Zach Peagler,,6,9,CG,0.246415,2.919887,0.227238,2.244423,2.028396,1.967393,2.974569,0.946173,20.014727,20.635326,30.26096,0.441786,PSF-01133_20240429141512,0,0,0,118.434906,397.47226,0.70203,0.5,0.8,32.058086,61.87,60.01,25.51,23.89,98.3,156.5,36.8,76.5,114,3.757,-24,4,303,,,,,,,,0:00:00,0000-00-00,nan,nan,nan,0,nan,14:13:28,4/29/2024,-1.42,0.284,0.212,0.043,-0.164,99.208,69.218,0,150,-9999,-9999,0,rectangular,7000,500,-9999,-9999,55537,55537,55537,0,-9999,0,0,0,0,2.505861,2.425423,1.687634,0.673925,0.267195,-0.016948,0.262628,0.209041,118.434906,0.000359,2.408414,0.000005,1,2.331839,0,1,0.600047,0.602054,0.107606,0,PSF-01133_20240429141512,PFA-00959,PSA-00959,PSF-01133,RHS-01583,2.0.0,2024-04-29T17:45:45.604Z
68,14:15:20,4/29/2024,TIM2024,Zach Peagler,,6,10,Control,0.068799,2.921107,0.067216,0.670241,1.962219,1.944006,2.918074,0.955855,19.776411,19.961687,29.685621,0.441786,PSF-01133_20240429141520,0,0,0,120.519165,410.794983,0.70662,0.5,0.8,31.719336,59.72,59.16,25.55,23.57,98.3,156.6,154.5,1.4,112,3.757,-29,14,282,,,,,,,,0:00:00,0000-00-00,nan,nan,nan,0,nan,14:13:28,4/29/2024,-1.42,0.136,-0.024,-9999,118.117,59.21,-9999,0,150,-9999,-9999,0,rectangular,7000,500,-9999,-9999,55537,55537,55537,0,-9999,0,0,0,0,2.504669,2.422657,1.688944,0.948856,0.266794,-0.021006,0.263353,0.207318,120.519165,0.000362,2.408414,0.000005,1,2.331839,0,1,0.600047,0.602054,0.107606,0,PSF-01133_20240429141520,PFA-00959,PSA-00959,PSF-01133,RHS-01583,2.0.0,2024-04-29T17:45:45.604Z
69,14:15:30,4/29/2024,TIM2024,Zach Peagler,,6,11,Liquid,-0.152602,2.922229,-0.16101,-2.054204,1.906164,1.961963,3.128118,1.221954,19.960003,19.392332,31.823858,0.441786,PSF-01133_20240429141530,0,0,0,109.03537,392.927521,0.722505,0.5,0.8,31.923853,57.85,59.54,25.6,24.73,98.29,156.8,-7.4,104.7,110,3.756,-21,23,309,,,,,,,,0:00:00,0000-00-00,nan,nan,nan,0,nan,14:13:28,4/29/2024,-1.42,-0.004,0.092,-0.069,22.151,-41.034,32.144,0,150,-9999,-9999,0,rectangular,7000,500,-9999,-9999,55537,55537,55537,0,-9999,0,0,0,0,2.505181,2.420241,1.690153,0.588242,0.266278,-0.008337,0.264349,0.205754,109.03537,0.000362,2.408414,0.000005,1,2.331839,0,1,0.600047,0.602054,0.107606,0,PSF-01133_20240429141530,PFA-00959,PSA-00959,PSF-01133,RHS-01583,2.0.0,2024-04-29T17:45:45.604Z
70,14:15:47,4/29/2024,TIM2024,Zach Peagler,,6,12,CBG,0.270881,2.922163,0.247901,2.454992,2.05897,1.992389,3.007266,0.948296,20.270416,20.947803,30.595695,0.441786,PSF-01133_20240429141547,0,0,0,122.780441,467.599152,0.737424,0.5,0.8,35.158527,62.2,60.19,25.68,24.07,98.29,156.8,155.2,1,119,3.755,-4,-6,271,,,,,,,,0:00:00,0000-00-00,nan,nan,nan,0,nan,14:13:28,4/29/2024,-1.42,0.047,-0.018,0.01,119.643,60.033,29.669,0,150,-9999,-9999,0,rectangular,7000,500,-9999,-9999,55537,55537,55537,0,-9999,0,0,0,0,2.506074,2.425815,1.690082,0.950688,0.265473,-0.016756,0.266039,0.213512,122.780441,0.000356,2.408414,0.000005,1,2.331839,0,1,0.600047,0.602054,0.107606,0,PSF-01133_20240429141547,PFA-00959,PSA-00959,PSF-01133,RHS-01583,2.0.0,2024-04-29T17:45:45.604Z
71,14:15:58,4/29/2024,TIM2024,Zach Peagler,,7,1,CBG,0.10267,2.920055,0.099182,1.09204,2.008373,1.978692,3.062668,1.054295,20.13121,20.433189,31.159588,0.441786,PSF-01133_20240429141558,0,0,0,124.016045,425.504211,0.708543,0.5,0.8,29.345316,60.51,59.61,25.72,24.37,98.29,156.5,155.1,0.9,104,3.728,-11,8,188,,,,,,,,0:00:00,0000-00-00,nan,nan,nan,0,nan,14:13:28,4/29/2024,-1.42,0.226,0.104,-0.025,121.777,61.407,29.298,0,150,-9999,-9999,0,rectangular,7000,500,-9999,-9999,55537,55537,55537,0,-9999,0,0,0,0,2.505254,2.423635,1.687815,0.950313,0.264982,-0.013816,0.267027,0.199604,124.016045,0.000366,2.408414,0.000005,1,2.331839,0,1,0.600047,0.602054,0.107606,0,PSF-01133_20240429141558,PFA-00959,PSA-00959,PSF-01133,RHS-01583,2.0.0,2024-04-29T17:45:45.604Z
72,14:16:10,4/29/2024,TIM2024,Zach Peagler,,7,2,CG,0.157658,2.921078,0.149585,1.608323,2.067708,2.024057,3.09672,1.029013,20.593285,21.037395,31.50684,0.441786,PSF-01133_20240429141610,0,0,0,125.31102,477.30304,0.73746,0.5,0.8,30.293736,62.08,60.77,25.78,24.56,98.29,156.6,155.2,0.9,103,3.755,-8,2,204,,,,,,,,0:00:00,0000-00-00,nan,nan,nan,0,nan,14:13:28,4/29/2024,-1.42,0.041,0.033,0.048,0.481,0.309,-0.028,0,150,-9999,-9999,0,rectangular,7000,500,-9999,-9999,55537,55537,55537,0,-9999,0,0,0,0,2.506862,2.425643,1.688914,0.950715,0.264378,-0.012366,0.268218,0.198854,125.31102,0.000363,2.408414,0.000005,1,2.331839,0,1,0.600047,0.602054,0.107606,0,PSF-01133_20240429141610,PFA-00959,PSA-00959,PSF-01133,RHS-01583,2.0.0,2024-04-29T17:45:45.604Z
73,14:16:19,4/29/2024,TIM2024,Zach Peagler,,7,3,Control,0.122918,2.921781,0.117956,1.211123,2.045212,2.012351,3.028362,0.98315,20.473764,20.80809,30.810709,0.441786,PSF-01133_20240429141619,0,0,0,150.711182,389.110199,0.612677,0.5,0.8,26.050486,61.25,60.27,25.82,24.18,98.29,156.7,155.2,1,106,3.755,-13,18,192,,,,,,,,0:00:00,0000-00-00,nan,nan,nan,0,nan,14:13:28,4/29/2024,-1.42,0.032,-0.041,-0.064,6.083,3.194,-0.27,0,150,-9999,-9999,0,rectangular,7000,500,-9999,-9999,55537,55537,55537,0,-9999,0,0,0,0,2.506146,2.42457,1.68967,0.95058,0.263925,-0.017131,0.269089,0.202054,150.711182,0.00036,2.408414,0.000005,1,2.331839,0,1,0.600047,0.602054,0.107606,0,PSF-01133_20240429141619,PFA-00959,PSA-00959,PSF-01133,RHS-01583,2.0.0,2024-04-29T17:45:45.604Z
74,14:16:28,4/29/2024,TIM2024,Zach Peagler,,7,4,Liquid,0.134211,2.921727,0.128316,1.309484,2.01908,1.983541,2.996504,0.977423,20.181425,20.543015,30.487747,0.441786,PSF-01133_20240429141628,0,0,0,121.303436,441.293488,0.725118,0.5,0.8,30.112936,60.32,59.26,25.86,24.01,98.29,156.7,155,1.1,104,3.755,-18,17,225,,,,,,,,0:00:00,0000-00-00,nan,nan,nan,0,nan,14:13:28,4/29/2024,-1.42,-0.019,-0.068,-0.123,36.343,18.342,8.334,0,150,-9999,-9999,0,rectangular,7000,500,-9999,-9999,55537,55537,55537,0,-9999,0,0,0,0,2.504725,2.423369,1.689612,0.950027,0.263489,-0.019624,0.269953,0.199853,121.303436,0.000366,2.408414,0.000005,1,2.331839,0,1,0.600047,0.602054,0.107606,0,PSF-01133_20240429141628,PFA-00959,PSA-00959,PSF-01133,RHS-01583,2.0.0,2024-04-29T17:45:45.604Z
75,14:16:48,4/29/2024,TIM2024,Zach Peagler,,7,5,CBG,0.039632,2.92178,0.039101,0.433004,1.990409,1.978654,3.050963,1.060554,20.130516,20.250114,31.040028,0.441786,PSF-01133_20240429141648,0,0,0,111.98616,410.997375,0.727526,0.5,0.8,30.368694,59.15,58.8,25.95,24.31,98.29,156.7,154.5,1.4,104,3.725,-12,20,161,,,,,,,,0:00:00,0000-00-00,nan,nan,nan,0,nan,14:13:28,4/29/2024,-1.42,0.05,-0.013,-9999,0.284,0.3,-9999,0,150,-9999,-9999,0,rectangular,7000,500,-9999,-9999,55537,55537,55537,0,-9999,0,0,0,0,2.504064,2.42185,1.68967,0.948777,0.262553,-0.017237,0.271933,0.200328,111.98616,0.000362,2.408414,0.000005,1,2.331839,0,1,0.600047,0.602054,0.107606,0,PSF-01133_20240429141648,PFA-00959,PSA-00959,PSF-01133,RHS-01583,2.0.0,2024-04-29T17:45:45.604Z
76,14:16:55,4/29/2024,TIM2024,Zach Peagler,,7,6,CG,-0.064902,2.921302,-0.066376,-0.79492,1.931953,1.953556,3.079103,1.14715,19.874771,19.654995,31.325687,0.441786,PSF-01133_20240429141655,0,0,0,115.169052,417.307373,0.724019,0.5,0.8,28.42239,57.32,57.96,25.98,24.46,98.29,156.7,154.7,1.3,98,3.725,-20,6,154,,,,,,,,0:00:00,0000-00-00,nan,nan,nan,0,nan,14:13:28,4/29/2024,-1.42,-0.081,-0.058,-9999,0.283,-2.557,-9999,0,150,-9999,-9999,0,rectangular,7000,500,-9999,-9999,55537,55537,55537,0,-9999,0,0,0,0,2.502882,2.419492,1.689154,0.949284,0.262268,-0.0158,0.272496,0.194806,115.169052,0.000361,2.408414,0.000005,1,2.331839,0,1,0.600047,0.602054,0.107606,0,PSF-01133_20240429141655,PFA-00959,PSA-00959,PSF-01133,RHS-01583,2.0.0,2024-04-29T17:45:45.604Z
77,14:17:12,4/29/2024,TIM2024,Zach Peagler,,7,7,Control,-0.007417,2.919902,-0.007436,-0.085072,1.956954,1.959267,3.052862,1.095909,19.932829,19.909288,31.05864,0.441786,PSF-01133_20240429141712,0,0,0,116.643188,406.454437,0.713023,0.5,0.8,27.119312,57.79,57.86,26.06,24.32,98.29,156.5,154.6,1.2,95,3.754,-26,3,193,,,,,,,,0:00:00,0000-00-00,nan,nan,nan,0,nan,14:13:28,4/29/2024,-1.42,-0.046,-0.008,0.055,0.29,-0.198,0.219,0,150,-9999,-9999,0,rectangular,7000,500,-9999,-9999,55537,55537,55537,0,-9999,0,0,0,0,2.502719,2.420082,1.687651,0.949007,0.26144,-0.018361,0.274221,0.192092,116.643188,0.000361,2.408414,0.000005,1,2.331839,0,1,0.600047,0.602054,0.107606,0,PSF-01133_20240429141712,PFA-00959,PSA-00959,PSF-01133,RHS-01583,2.0.0,2024-04-29T17:45:45.604Z
78,14:17:20,4/29/2024,TIM2024,Zach Peagler,,7,8,Liquid,0.148752,2.921224,0.141544,1.499931,2.009187,1.968455,3.024132,1.014945,20.026152,20.440538,30.766119,0.441786,PSF-01133_20240429141720,0,0,0,119.084358,434.071198,0.725657,0.5,0.8,29.826756,59.2,58,26.1,24.16,98.29,156.6,155.1,1,103,3.754,-14,5,185,,,,,,,,0:00:00,0000-00-00,nan,nan,nan,0,nan,14:13:28,4/29/2024,-1.42,0.174,0.093,-0.035,-59.09,86.278,42.42,0,150,-9999,-9999,0,rectangular,7000,500,-9999,-9999,55537,55537,55537,0,-9999,0,0,0,0,2.502912,2.42189,1.689071,0.95048,0.261055,-0.020593,0.274976,0.198908,119.084358,0.000356,2.408414,0.000005,1,2.331839,0,1,0.600047,0.602054,0.107606,0,PSF-01133_20240429141720,PFA-00959,PSA-00959,PSF-01133,RHS-01583,2.0.0,2024-04-29T17:45:45.604Z
